[
    {
        "name": "Sapporo City",
        "photo": "images/sapporoCity.jpg",
        "content": "Sapporo is the largest city in the northernmost main island of Hokkaido, with a population of 1.9 million.The city is a popular destination for Japanese and international travellers alike, who flock to the city for uniquely local cultural events.",
        "latitude": "43.015274",
        "longitude": "141.410031",
        "icon": "",
        "type": "City"
    },
    {
        "name": "Kamaishi City",
        "photo": "images/kitakamiCity.jpg",
        "content": "Kamaishi is set to become the smallest host city in Rugby World Cup history once the tournament arrives in Japan in September 2019. When the city submitted its bid, it was less than a year after a devastating tsunami had brought the region to its knees.",
        "latitude": "39.326673",
        "longitude": "141.891447",
        "icon": "",
        "type": "City"
    },
    {
        "name": "Kumagaya City",
        "photo": "images/kumagayaCity.jpg",
        "content": "Today, Kumagaya is the northern-most outpost of the Tokyo Metropolitan Area. In other words, it's a regional center in the giant sprawl of suburbs stretching north from Tokyo covering almost all of central Saitama.",
        "latitude": "36.168510",
        "longitude": "139.402416",
        "icon": "",
        "type": "City"
    },
    {
        "name": "Tokyo Metropolitan",
        "photo": "images/tokyoCity.jpg",
        "content": "Tokyo (東京, Tōkyō) is Japan's capital and the world's most populous metropolis. Yoking past and future, Tokyo dazzles with its traditional culture and passion for everything new.",
        "latitude": "35.664548",
        "longitude": "139.527162",
        "icon": "",
        "type": "City"
    },
    {
        "name": "Yokohama City",
        "photo": "images/yokohamaCity.jpg",
        "content": "Yokohama (横浜) is Japan's second largest city with a population of over three million. Yokohama is located less than half an hour south of Tokyo by train, and is the capital of Kanagawa Prefecture.",
        "latitude": "35.510182",
        "longitude": "139.606394",
        "icon": "",
        "type": "City"
    },
    {
        "name": "Shizuoka",
        "photo": "images/shizuokaCity.jpg",
        "content": "YA couple of hours west from Tokyo, Shizuoka Prefecture (静岡県, Shizuoka-ken) is one of Japan’s most visited prefectures for many reasons. Mount Fuji, Japan’s highest mountain and one of the country’s most iconic symbols, is located on the prefecture’s northern border",
        "latitude": "34.743543",
        "longitude": "137.970760",
        "icon": "",
        "type": "City"
    },
    {
        "name": "Toyota City",
        "photo": "images/toyotaCity.jpg",
        "content": "Toyota City is an industrial city east of Nagoya in Aichi Prefecture, central Japan, west of Toyohashi. Toyota was previously known as Koromo (挙母) until 1959, when the name of the city was changed to Toyota city to reflect the importance of the town's major employer - Toyota Motor Corporation",
        "latitude": "35.084447",
        "longitude": "137.170909",
        "icon": "",
        "type": "City"
    },
    {
        "name": "Higashi-Osaka City",
        "photo": "images/higashiOsakaCity.jpg",
        "content": "Higashiōsaka is a city located in Osaka Prefecture, Japan. The city is known as one of the industrial cities of Japan and <i>the rugby football town.</i>",
        "latitude": "34.669014",
        "longitude": "135.626243",
        "icon": "",
        "type": "City"
    },
    {
        "name": "Kobe City",
        "photo": "images/kobeCity.jpg",
        "content": "Kobe is a port city in Hyogo Prefecture, 33 km west of Osaka, and one of Japan's most pleasant cities for both residents and visitors alike, with a laid-back cosmopolitan feel.",
        "latitude": "34.656811",
        "longitude": "135.169162",
        "icon": "",
        "type": "City"
    },
    {
        "name": "Fukuoka City",
        "photo": "images/fukuokaCity.jpg",
        "content": "Great food and even better company reign supreme in Fukuoka, the relaxed port town that is at the heart of life on Kyushu , Japan's third-largest island.",
        "latitude": "33.585968",
        "longitude": "130.460873",
        "icon": "",
        "type": "City"
    },
    {
        "name": "Kumamoto City",
        "photo": "images/kumamotoCity.jpg",
        "content": "Kumamoto City is located in the center  of the island in the southwestern part of the Japanese archipelago called, Kyushu. Kumamoto is a city of water with abundant underground water. It is the third biggest city in Kyushu but surrounded by magnificent nature and has a quiet atmosphere.",
        "latitude": "32.836803",
        "longitude": "130.800036",
        "icon": "",
        "type": "City"
    },
    {
        "name": "Oita Prefecture",
        "photo": "images/oitaCity.jpg",
        "content": "Oita Prefecture (大分県, Ōita-ken) is located on the eastern coast of Kyushu. Prefectural capital is Oita City. Just north of Oita City is Beppu, one of Japan's most famous hot spring resorts.",
        "latitude": "33.200722",
        "longitude": "131.657451",
        "icon": "",
        "type": "City"
    },
    {
        "name": "Sapporo Dome",
        "photo": "images/sapporoStadium.jpg",
        "content": "Sapporo Dome is truly one of the world’s great sporting stadiums. From the outside it resembles an extra-terrestrial spacecraft, while inside, it’s a fully enclosed, 40,000 seat technological masterpiece. Designed to host baseball matches in a diamond format, it transforms and reshapes to house a rectangular field for rugby or football.",
        "latitude": "43.015274",
        "longitude": "141.410031",
        "icon": "performance.png",
        "type": "Stadium"
    },
    {
        "name": "Kamaishi Memorial Stadium",
        "photo": "images/kamaishiStadium.jpg",
        "content": "Set in the absolutely stunning surroundings of densely forested mountains and with views out to the sea and surrounding countryside, the Kamaishi Recovery Memorial Stadium pays tribute to the people of Kamaishi. To those who perished in the Tsunami on 11 March 2011, those who have taken part in its glorious rugby history and for those who live on in this most famous of Japanese rugby towns.",
        "latitude": "39.326673",
        "longitude": "141.891447",
        "icon": "performance.png",
        "type": "Stadium"
    },
    {
        "name": "Kumagaya Rugby Stadium",
        "photo": "images/kumagayaStadium.jpg",
        "content": "Built in 1991, Kumagaya Rugby Stadium is a favourite of Japanese rugby fans as one of the country’s premier stadia built exclusively for rugby. It has played host to many iconic matches over the years including the national university rugby championships and the annual springtime national high school tournament.",
        "latitude": "36.168510",
        "longitude": "139.402416",
        "icon": "performance.png",
        "type": "Stadium"
    },
    {
        "name": "Tokyo Stadium",
        "photo": "images/tokyoStadium.jpg",
        "content": "Situated 40 minutes by train to the west of central Tokyo, Tokyo Stadium will host some of Rugby World Cup’s biggest matches, including the opening ceremony and the match that kicks it all off on 20 September when host nation Japan takes on Russia.",
        "latitude": "35.664548",
        "longitude": "139.527162",
        "icon": "performance.png",
        "type": "Stadium"
    },
    {
        "name": "International Stadium Yokohama",
        "photo": "images/yokohamaStadium.jpg",
        "content": "Yokohama is often credited as the birthplace of rugby in Japan with rugby matches reportedly taking place as early as the 1860s at the Yokohama Football Club, known today as the Yokohama Country and Athletic Club.",
        "latitude": "35.510182",
        "longitude": "139.606394",
        "icon": "performance.png",
        "type": "Stadium"
    },
    {
        "name": "Shizuoka Stadium Ecopa",
        "photo": "images/shizuokaStadium.jpg",
        "content": "It’s hard to imagine a more picturesque setting for a Rugby World Cup venue. Nestled in among green, verdant hills and looking out across Shizuoka’s famous tea plantations, Shizuoka Stadium ECOPA is set to host some incredible matches at Rugby World Cup 2019.",
        "latitude": "34.743543",
        "longitude": "137.970760",
        "icon": "performance.png",
        "type": "Stadium"
    },
    {
        "name": "City of Toyota Stadium",
        "photo": "images/toyotaStadium.jpg",
        "content": "There isn’t a single seat in the purpose-built, rectangular City of Toyota Stadium that doesn’t have an absolute cracking view of the on-field action. With its steep, high stands, fans feel like they’re on top of the field. Set to host some truly epic matches, including the massive Japan v Samoa game.",
        "latitude": "35.084447",
        "longitude": "137.170909",
        "icon": "performance.png",
        "type": "Stadium"
    },
    {
        "name": "Hanazono Rugby Stadium",
        "photo": "images/hanazonoStadium.jpg",
        "content": "With its long history dating back to 1929 and as the home of Japanese High School Rugby, Hanazono holds a special place in the hearts of all Japanese rugby fans and is considered by many as the spiritual home of Japanese rugby.",
        "latitude": "34.669014",
        "longitude": "135.626243",
        "icon": "performance.png",
        "type": "Stadium"
    },
    {
        "name": "Kobe Misaki Stadium",
        "photo": "images/kobiStadium.jpg",
        "content": "Nestled inside the thoroughly cosmopolitan and quietly sophisticated port city of Kobe, Kobe Misaki Stadium will offer fans an unforgettable Rugby World Cup 2019 experience.",
        "latitude": "34.656811",
        "longitude": "135.169162",
        "icon": "performance.png",
        "type": "Stadium"
    },
    {
        "name": "Fukuoka Hakatanomori Stadium",
        "photo": "images/hakatanomoriStadium.jpg",
        "content": "Surrounded by green, verdant forest and on the very doorstep of the wonderfully cosmopolitan yet laidback southern city of Fukuoka, Fukuoka Hakatanomori Stadium will be an incredible venue from which to enjoy some cracking Rugby World Cup 2019 action.",
        "latitude": "33.585968",
        "longitude": "130.460873",
        "icon": "performance.png",
        "type": "Stadium"
    },
    {
        "name": "Kumamoto Stadium",
        "photo": "images/kumamotoStadium.jpg",
        "content": "Japan has a wonderful obsession of building amazing sporting stadia in the midst of the most beautiful natural surroundings. Set among green forested hills, rolling parkland and rich agricultural land, Kumamoto Stadium is a prime example of this.",
        "latitude": "32.836803",
        "longitude": "130.800036",
        "icon": "performance.png",
        "type": "Stadium"
    },
    {
        "name": "Oita Stadium",
        "photo": "images/oitaStadium.jpg",
        "content": "Set within stunning parkland just outside Oita City, Oita Stadium will host five epic Rugby World Cup 2019 matches including the quarterfinals of Pools A and B. As the largest Rugby World Cup 2019 venue on the southern island of Kyushu, Oita will truly rock as rugby fans from throughout Japan and across the world come together to watch some of the biggest names in the world of rugby.",
        "latitude": "33.200722",
        "longitude": "131.657451",
        "icon": "performance.png",
        "type": "Stadium"
    },
    {
        "name": "Aviva Stadium",
        "photo": "images/avivaStadium.jpg",
        "content": "This stadium is for testing my geolocation function only and for demo purposes during my interview as my current position isn't in Japan and a route using my current position cannot be calculated over such a distance as noted by Google in their API docs.",
        "latitude": "53.335152",
        "longitude": "-6.228411",
        "icon": "performance.png",
        "type": "Stadium"
    }
]
